City_ID,City,Lat,Lng,Max Temp,Humidity,Cloudiness,Wind Speed,Country,Date
0,constantia,44.1833,28.65,283.53,58,55,2.96,RO,1700158363
1,haiku-pauwela,20.9219,-156.3051,296.51,82,40,4.63,US,1700158363
2,waitangi,-43.9535,-176.5597,288.05,93,98,3.58,NZ,1700158363
3,coquimbo,-29.9533,-71.3436,290.45,66,0,5.8,CL,1700158364
4,jinka,5.65,36.65,292.35,85,74,1.29,ET,1700158364
5,kurchatov,51.6601,35.6521,278.38,97,100,3.72,RU,1700158364
6,invercargill,-46.4,168.35,281.49,93,100,1.74,NZ,1700158366
7,port-aux-francais,-49.35,70.2167,278.76,86,100,15.83,TF,1700158366
8,taki,22.5861,88.9214,296.12,89,100,4.55,IN,1700158367
9,bredasdorp,-34.5322,20.0403,291.42,85,99,2.34,ZA,1700158367
10,tiksi,71.6872,128.8694,258.72,95,100,2.85,RU,1700158367
11,susuman,62.7833,148.1667,239.29,100,85,0.52,RU,1700158367
12,bilibino,68.0546,166.4372,253.41,99,100,0.34,RU,1700158193
13,ceyhan,37.0247,35.8175,291.34,80,32,1.15,TR,1700158368
14,kodiak,57.79,-152.4072,276.88,60,20,4.63,US,1700158368
15,patacamaya,-17.2333,-67.9167,293.32,30,52,5.81,BO,1700158368
16,sinabang,2.4803,96.3801,299.19,88,100,1.86,ID,1700158368
17,hawaiian paradise park,19.5933,-154.9731,295.39,83,100,2.06,US,1700158356
18,grytviken,-54.2811,-36.5092,274.86,99,100,4.1,GS,1700158368
19,cedar city,37.6775,-113.0619,285.96,67,0,7.2,US,1700158369
20,launceston,-41.45,147.1667,278.23,81,2,0.0,AU,1700158369
21,obubra,6.0752,8.329,298.47,87,49,2.31,NG,1700158369
22,mogocha,53.7333,119.7667,257.89,97,18,1.06,RU,1700158369
23,albany,42.6001,-73.9662,289.15,49,6,0.89,US,1700158343
24,brush,40.2589,-103.6238,291.19,26,100,2.06,US,1700158200
25,vadso,70.0744,29.7487,269.24,74,40,4.63,NO,1700158370
26,bonthe,7.5264,-12.505,300.84,79,14,4.42,SL,1700158370
27,sitka,57.0531,-135.33,280.09,81,100,3.09,US,1700158370
28,al bawiti,28.3492,28.8659,293.2,48,0,2.62,EG,1700158370
29,iqaluit,63.7506,-68.5145,272.0,86,75,12.86,CA,1700158370
30,puerto ayora,-0.7393,-90.3518,301.13,94,70,2.68,EC,1700158370
31,yellowknife,62.456,-114.3525,268.44,96,75,10.8,CA,1700158371
32,namibe,-15.1961,12.1522,296.79,77,79,4.24,AO,1700158371
33,margaret river,-33.95,115.0667,285.73,74,0,5.89,AU,1700158371
34,lospalos,-8.5186,127.0025,295.75,85,13,0.53,TL,1700158371
35,quibala,-10.7337,14.98,291.3,96,90,0.95,AO,1700158371
36,udachny,66.4167,112.4,263.38,95,100,3.09,RU,1700158371
37,sungailiat,-1.85,106.1333,300.18,81,100,0.44,ID,1700158372
38,howrah,22.5892,88.3103,296.15,88,75,3.09,IN,1700158243
39,kingsbridge,50.2845,-3.7764,282.35,81,57,4.16,GB,1700158372
40,bethanie,-26.4833,17.15,302.72,16,56,8.48,NA,1700158372
41,majuro,7.0897,171.3803,301.65,77,100,8.35,MH,1700158372
42,sialkot,32.5101,74.5431,291.05,72,22,0.0,PK,1700158372
43,college,64.8569,-147.8028,265.07,87,75,0.0,US,1700158372
44,selfoss,63.9331,-20.9971,278.73,81,98,4.36,IS,1700158372
45,avarua,-21.2078,-159.775,296.18,64,95,4.63,CK,1700158373
46,talnakh,69.4865,88.3972,261.6,95,100,4.1,RU,1700158373
47,west island,-12.1568,96.8225,299.14,73,40,4.63,CC,1700158373
48,tabou,4.423,-7.3528,300.26,79,13,2.48,CI,1700158373
49,uturoa,-16.7333,-151.4333,298.95,75,94,10.37,PF,1700158373
50,san jeronimito,17.55,-101.3333,307.06,59,40,4.63,MX,1700158373
51,nyurba,63.2842,118.3319,266.21,93,100,5.46,RU,1700158373
52,khark,29.2614,50.3306,296.93,66,80,6.8,IR,1700158373
53,puerto baquerizo moreno,-0.9,-89.6,300.7,65,75,9.26,EC,1700158374
54,wailua homesteads,22.0669,-159.378,296.59,82,40,7.72,US,1700158374
55,nago,26.5881,127.9761,293.4,74,98,10.51,JP,1700158374
56,ulanhot,46.0833,122.0833,266.4,75,100,5.54,CN,1700158374
57,punta arenas,-53.15,-70.9167,283.21,66,94,5.11,CL,1700158166
58,adamstown,-25.066,-130.1015,294.93,90,100,6.57,PN,1700158374
59,blackmans bay,-43.0167,147.3167,281.22,84,46,0.45,AU,1700158374
60,ushuaia,-54.8,-68.3,282.96,49,0,5.81,AR,1700158374
61,kosan,38.8558,127.4181,272.32,91,56,2.64,KP,1700158375
62,as sars,36.0764,9.0212,292.94,47,8,1.2,TN,1700158375
63,pointe-du-lac,46.2869,-72.6845,284.15,63,0,3.09,CA,1700158375
64,edinburgh of the seven seas,-37.0676,-12.3116,287.14,79,5,8.19,SH,1700158375
65,kasempa,-13.4584,25.8338,299.84,27,50,1.52,ZM,1700158375
66,lihue,21.9789,-159.3672,296.92,76,40,7.72,US,1700158375
67,afaahiti,-17.75,-149.2833,299.08,80,100,10.51,PF,1700158375
68,mata-utu,-13.2816,-176.1745,301.83,76,100,2.21,WF,1700158376
69,jamestown,42.097,-79.2353,290.63,41,0,5.14,US,1700158280
70,konotop,51.2403,33.2026,276.6,96,100,4.59,UA,1700158376
71,east wenatchee bench,47.4257,-120.2812,280.4,69,0,1.54,US,1700158376
72,ar rass,25.8694,43.4973,293.7,55,0,6.19,SA,1700158376
73,stanley,54.868,-1.6985,279.0,94,20,1.03,GB,1700158376
74,dzuunmod,48.2199,97.3744,264.18,56,0,3.35,MN,1700158376
75,fisterra,42.9049,-9.2629,288.72,78,78,2.62,ES,1700158377
76,bikenibeu village,1.3673,173.1241,301.34,75,63,2.5,KI,1700158377
77,kirtland,36.7342,-108.3598,287.4,35,100,4.63,US,1700158314
78,lady frere,-31.7031,27.2329,294.91,45,98,2.55,ZA,1700158377
79,asahi,35.7167,140.65,285.52,72,100,6.58,JP,1700158377
80,nar'yan-mar,67.6713,53.087,264.32,96,100,2.68,RU,1700158377
81,puerto natales,-51.7236,-72.4875,282.4,76,100,2.57,CL,1700158377
82,kendari,-3.945,122.4989,297.83,92,79,1.3,ID,1700158377
83,ta`u,-14.2336,-169.5144,301.04,82,96,4.88,AS,1700158378
84,saipan,15.1355,145.701,300.54,83,20,6.17,MP,1700158378
85,portland,45.5234,-122.6762,284.35,81,20,3.09,US,1700158227
86,coxen hole,16.3244,-86.5366,300.75,83,75,7.72,HN,1700158378
87,arraial do cabo,-22.9661,-42.0278,304.07,51,0,6.17,BR,1700158145
88,hamilton,39.1834,-84.5333,293.85,49,0,3.6,US,1700158221
89,thompson,55.7435,-97.8558,266.24,79,100,3.6,CA,1700158378
90,whitehorse,60.7161,-135.0538,273.58,64,20,5.66,CA,1700158378
91,mary,37.0,62.5,295.52,14,100,5.68,TM,1700158379
92,rayevskiy,54.0658,54.9468,276.68,96,100,1.2,RU,1700158215
93,sao vicente,-23.9631,-46.3919,309.25,50,100,2.68,BR,1700158370
94,kili,5.6439,169.1211,301.62,75,100,5.47,MH,1700158379
95,tazacorte,28.629,-17.9293,298.69,34,0,3.09,ES,1700158379
96,san luis de la loma,17.2706,-100.8939,303.51,67,14,2.23,MX,1700158379
97,dunedin,-45.8742,170.5036,283.04,94,100,1.34,NZ,1700158379
98,sann,26.0418,68.1378,295.82,21,35,1.79,PK,1700158380
99,georgetown,5.4112,100.3354,300.94,89,20,2.06,MY,1700158314
100,kill devil hills,36.0307,-75.676,292.58,71,0,2.57,US,1700158316
101,longyearbyen,78.2186,15.6401,261.06,67,40,6.17,SJ,1700158380
102,shevchenko,48.5,35.0,280.01,80,99,5.65,UA,1700158380
103,wafangdian,39.6183,122.0081,273.05,50,48,6.84,CN,1700158380
104,al fujairah city,25.1164,56.3414,299.22,69,40,4.12,AE,1700158380
105,ojinaga,29.5667,-104.4167,294.02,72,0,0.0,MX,1700158381
106,rongelap,11.1635,166.8941,301.12,82,46,8.95,MH,1700158381
107,bethel,41.3712,-73.414,291.09,45,0,3.6,US,1700158381
108,guanabacoa,23.1224,-82.3075,302.25,61,40,2.57,CU,1700158381
109,beidao,34.5686,105.8933,276.39,44,0,0.88,CN,1700158381
110,ribeira grande,38.5167,-28.7,294.37,94,75,12.96,PT,1700158382
111,port mathurin,-19.6833,63.4167,298.85,77,65,7.37,MU,1700158382
112,hermanus,-34.4187,19.2345,290.83,90,74,2.19,ZA,1700158382
113,malango,-2.9627,119.9001,292.77,98,96,1.34,ID,1700158382
114,old town,50.087,14.4202,280.93,88,100,5.66,CZ,1700158383
115,new norfolk,-42.7826,147.0587,281.88,93,86,1.41,AU,1700158383
116,port alfred,-33.5906,26.891,292.69,90,85,2.24,ZA,1700158383
117,tolanaro,-25.0319,46.9987,294.18,72,97,5.98,MG,1700158384
118,tobelo,1.7284,128.0095,299.62,83,90,1.65,ID,1700158384
119,tarnogskiy gorodok,60.4997,43.5761,266.06,91,79,2.61,RU,1700158385
120,santana,-0.0583,-51.1817,308.25,46,40,5.14,BR,1700158385
121,anloga,5.7947,0.8973,301.21,75,59,3.88,GH,1700158385
122,qaqortoq,60.7167,-46.0333,269.31,79,93,3.6,GL,1700158386
123,nova sintra,14.8667,-24.7167,297.09,70,93,3.92,CV,1700158386
124,rohru,31.2167,77.75,282.87,46,84,1.74,IN,1700158387
125,ancud,-41.8697,-73.8203,284.17,97,100,9.8,CL,1700158387
126,san diego country estates,33.0067,-116.7836,292.3,90,75,0.89,US,1700158387
127,pyt-yakh,60.7499,72.8582,272.96,96,99,3.18,RU,1700158387
128,dalandzadgad,43.5708,104.425,270.45,51,0,1.92,MN,1700158388
129,machakos,-1.5167,37.2667,292.12,95,37,1.91,KE,1700158388
130,hadibu,12.65,54.0333,300.67,81,86,4.85,YE,1700158388
131,barcelos,41.5388,-8.6151,291.44,95,95,1.11,PT,1700158159
132,yuzhno-kurilsk,44.0306,145.8556,279.47,65,99,7.52,RU,1700158389
133,cianorte,-23.6633,-52.605,311.28,24,49,5.7,BR,1700158389
134,atafu village,-8.5421,-172.5159,302.3,75,95,3.03,TK,1700158389
135,nurota,40.5614,65.6886,291.0,16,100,4.5,UZ,1700158389
136,fort st. john,56.2499,-120.8529,274.09,60,75,13.38,CA,1700158390
137,leu,44.1833,24.0,282.3,71,0,3.09,RO,1700158390
138,toliara,-23.35,43.6667,299.0,61,0,5.72,MG,1700158390
139,rikaze,29.25,88.8833,274.41,34,0,1.42,CN,1700158390
140,touros,-5.1989,-35.4608,302.36,62,62,7.3,BR,1700158269
141,ust-nera,64.5667,143.2,248.78,98,89,3.88,RU,1700158391
142,anadyr,64.75,177.4833,251.43,83,0,7.0,RU,1700158391
143,siwa oasis,29.2041,25.5195,295.18,45,0,2.41,EG,1700158391
144,kiruna,67.8557,20.2251,255.66,85,0,3.09,SE,1700158391
145,axim,4.8699,-2.2405,300.11,82,39,3.57,GH,1700158392
146,umba,66.6871,34.3429,263.85,90,33,4.06,RU,1700158392
147,myitkyina,25.3833,97.4,293.86,62,100,0.83,MM,1700158392
148,entre rios,-11.9419,-38.0844,303.28,54,95,4.73,BR,1700158392
149,zapolyarnyy,69.4154,30.8136,265.75,94,100,3.24,RU,1700158393
150,fraserburgh,57.6874,-2.0184,278.77,84,21,1.67,GB,1700158393
151,enewetak,11.3474,162.3373,301.5,81,95,9.26,MH,1700158393
152,krasnyy yar,46.5331,48.3456,283.13,80,98,1.35,RU,1700158393
153,hithadhoo,-0.6,73.0833,301.26,77,91,6.08,MV,1700158394
154,kerikeri,-35.2268,173.9474,289.21,93,83,2.44,NZ,1700158394
155,baiti,13.745,-14.7482,307.23,11,31,2.68,SN,1700158394
156,anna regina,7.2644,-58.5077,303.44,64,8,4.56,GY,1700158394
157,cradock,-32.1642,25.6192,294.34,42,91,4.41,ZA,1700158395
158,tofol,5.3248,163.0078,301.35,76,95,2.55,FM,1700158395
159,non sang,16.8687,102.5664,292.21,63,99,1.86,TH,1700158395
160,dudinka,69.4058,86.1778,261.83,96,97,4.8,RU,1700158395
161,cabo san lucas,22.8909,-109.9124,304.13,49,20,2.06,MX,1700158396
162,sambiase,38.9654,16.2847,289.89,82,40,0.51,IT,1700158396
163,mil'kovo,55.6078,37.7956,274.5,97,98,3.41,RU,1700158396
164,vila velha,-20.3297,-40.2925,303.12,74,0,10.29,BR,1700158396
165,ilulissat,69.2167,-51.1,265.16,73,75,0.0,GL,1700158397
166,nanga eboko,4.6833,12.3667,297.87,79,91,1.19,CM,1700158397
167,lakhipur,26.0299,90.3041,293.85,80,100,1.7,IN,1700158398
168,kapa'a,22.0752,-159.319,297.33,81,40,7.72,US,1700158398
169,chilca,-12.5211,-76.7372,293.81,79,79,3.97,PE,1700158398
170,urangan,-25.3,152.9,296.72,88,66,7.14,AU,1700158398
171,zhezqazghan,47.7833,67.7667,280.89,50,99,2.5,KZ,1700158399
172,lamu,-2.2717,40.902,299.27,82,20,4.44,KE,1700158399
173,papatowai,-46.5619,169.4708,280.1,94,100,4.12,NZ,1700158399
174,lerwick,60.1545,-1.1494,277.15,58,94,2.66,GB,1700158399
175,quesnel,52.9999,-122.5029,272.43,69,100,5.66,CA,1700158400
176,taperoa,-7.2075,-36.8267,308.19,21,26,4.96,BR,1700158400
177,salmon arm,50.6998,-119.3024,273.95,90,80,1.03,CA,1700158400
178,encruzilhada do sul,-30.5439,-52.5219,299.6,61,71,1.33,BR,1700158400
179,happy valley-goose bay,53.3168,-60.3315,270.32,80,75,0.0,CA,1700158400
180,crane,31.3974,-102.3501,293.3,59,100,6.72,US,1700158400
181,aykhal,66.0,111.5,264.35,94,100,6.05,RU,1700158401
182,turpan,42.9333,89.1667,277.46,45,0,0.56,CN,1700158401
183,rajapolah,-7.221,108.1896,295.2,99,97,0.79,ID,1700158401
184,saint-pierre,-21.3393,55.4781,297.97,88,75,7.2,RE,1700158401
185,kingston,17.997,-76.7936,298.84,99,100,1.79,JM,1700158356
186,zaozersk,69.4005,32.4476,265.38,91,92,4.55,RU,1700158402
187,kerema,-7.9631,145.7785,296.91,91,46,1.86,PG,1700158402
188,flekkefjord,58.2971,6.6607,274.23,80,92,4.83,NO,1700158402
189,homestead meadows north,31.8496,-106.1729,292.57,50,75,1.54,US,1700158403
190,flin flon,54.7682,-101.865,266.06,79,100,3.09,CA,1700158403
191,pasighat,28.0667,95.3333,293.89,43,100,1.53,IN,1700158403
192,olonkinbyen,70.9221,-8.7187,269.18,77,100,2.05,SJ,1700158403
193,ust'-kulom,61.6864,53.6902,266.66,93,100,3.11,RU,1700158404
194,tanumah,27.1,44.1333,293.36,52,0,3.76,SA,1700158404
195,lebu,-37.6167,-73.65,286.14,83,100,6.73,CL,1700158404
196,necochea,-38.5473,-58.7368,290.27,44,16,5.6,AR,1700158404
197,guapore,-28.8456,-51.8903,297.43,96,100,0.39,BR,1700158404
198,shimoda,34.6667,138.95,285.99,86,98,1.16,JP,1700158143
199,remire-montjoly,4.9167,-52.2667,305.17,62,0,6.17,GF,1700158405
200,klyuchi,52.2667,79.1667,279.81,61,100,3.49,RU,1700158405
201,campbell river,50.0163,-125.2446,277.84,100,75,2.06,CA,1700158405
202,utrik,11.2278,169.8474,301.18,81,31,8.89,MH,1700158406
203,okhotsk,59.3833,143.3,254.67,85,5,5.6,RU,1700158406
204,boguchany,58.3814,97.4531,275.85,75,100,4.92,RU,1700158406
205,tobruk,32.0836,23.9764,294.95,78,6,5.3,LY,1700158406
206,harper,4.375,-7.7169,299.83,82,24,2.48,LR,1700158406
207,sos'va,59.1766,61.8558,274.85,83,75,4.02,RU,1700158406
208,dedovichi,57.5517,29.9502,269.22,87,81,1.73,RU,1700158407
209,vilyuchinsk,52.9306,158.4028,265.89,84,7,4.39,RU,1700158407
210,mukalla,14.5425,49.1242,300.14,81,30,3.79,YE,1700158407
211,ceylanpinar,36.8472,40.05,292.05,53,86,5.08,TR,1700158407
212,fort saskatchewan,53.7168,-113.2187,274.84,55,75,5.14,CA,1700158408
213,morondava,-20.2833,44.2833,298.13,79,2,4.65,MG,1700158408
214,pingshan,22.9938,114.7131,285.51,67,67,3.91,CN,1700158408
215,colonia,50.9333,6.95,281.38,85,20,2.06,DE,1700158315
216,vernon,50.2581,-119.2691,275.54,86,41,2.57,CA,1700158408
217,altay,47.8667,88.1167,271.02,52,0,3.62,CN,1700158409
218,port elizabeth,-33.918,25.5701,292.77,92,75,8.23,ZA,1700158409
219,walvis bay,-22.9575,14.5053,292.64,70,29,2.46,NA,1700158409
220,san antonio de pale,-1.4014,5.6325,300.2,82,20,5.95,GQ,1700158409
221,dzhambeyty,50.2536,52.595,278.77,96,100,3.09,KZ,1700158410
222,ierapetra,35.01,25.7353,294.34,69,6,5.81,GR,1700158410
223,humaita,-7.5061,-63.0208,315.43,18,19,2.35,BR,1700158410
224,kabalo,-6.05,26.9167,295.56,95,98,2.19,CD,1700158410
225,cambria,35.5641,-121.0808,295.68,79,63,3.9,US,1700158410
226,praia da vitoria,38.7333,-27.0667,294.29,88,75,12.56,PT,1700158411
227,saint-philippe,-21.3585,55.7679,297.92,91,82,4.86,RE,1700158411
228,rheinsberg,53.0997,12.8989,278.18,75,99,4.43,DE,1700158412
229,escanaba,45.7453,-87.0646,287.73,71,0,6.17,US,1700158412
230,viedma,-40.8135,-62.9967,297.14,24,77,11.08,AR,1700158412
231,hatillo,18.4863,-66.8254,306.15,71,100,5.36,PR,1700158412
232,vila franca do campo,37.7167,-25.4333,294.75,99,100,8.79,PT,1700158413
233,dauphin,51.1494,-100.0502,273.23,64,0,8.23,CA,1700158413
234,hammerfest,70.6634,23.6821,274.4,93,75,12.35,NO,1700158413
235,al 'amarah,31.8406,47.1396,295.63,58,47,3.82,IQ,1700158414
236,smara,26.7384,-11.6719,301.91,13,0,3.31,EH,1700158414
237,valley city,46.9233,-98.0032,277.44,65,40,10.29,US,1700158414
238,quiindy,-25.9667,-57.2667,303.75,67,94,3.59,PY,1700158414
239,hovd,48.0056,91.6419,266.73,78,5,1.03,MN,1700158415
240,port douglas,-16.4833,145.4667,294.24,79,51,1.15,AU,1700158415
241,nogliki,51.8333,143.1667,268.9,78,100,3.58,RU,1700158415
242,mahina,-17.5065,-149.489,300.02,74,75,3.6,PF,1700158214
243,novoazovs'k,47.1139,38.086,281.79,90,90,4.23,UA,1700158416
244,paray-le-monial,46.4546,4.1158,287.12,72,100,10.29,FR,1700158416
245,machico,32.7,-16.7667,296.49,82,40,4.12,PT,1700158416
246,isafjordur,66.0755,-23.124,274.77,77,53,0.87,IS,1700158416
247,tura,25.5198,90.2201,293.07,94,100,1.3,IN,1700158416
248,egilsstadir,65.2653,-14.3948,271.1,100,75,0.51,IS,1700158417
249,karukh,34.4811,62.5863,286.57,21,72,0.53,AF,1700158417
250,orchard homes,46.8633,-114.0484,279.04,84,20,2.06,US,1700158417
251,inebolu,41.9747,33.7608,286.25,76,81,6.52,TR,1700158417
252,aldan,58.6031,125.3894,256.52,88,21,3.6,RU,1700158418
253,ahar,38.4774,47.0699,283.49,64,10,3.65,IR,1700158418
254,port lincoln,-34.7333,135.8667,285.74,79,6,6.32,AU,1700158418
255,khandyga,62.6667,135.6,256.77,96,100,2.61,RU,1700158418
256,labasa,-16.4167,179.3833,298.33,87,18,1.18,FJ,1700158419
257,holdrege,40.4403,-99.3698,284.1,82,0,2.06,US,1700158419
258,ouani,-12.1322,44.4258,299.9,75,74,3.69,KM,1700158419
259,troitskoye,52.9821,84.6757,279.83,46,100,7.15,RU,1700158419
260,formosa do rio preto,-11.0483,-45.1931,309.94,26,67,3.07,BR,1700158420
261,colesberg,-30.72,25.0972,297.93,31,90,8.8,ZA,1700158420
262,kruisfontein,-34.0033,24.7314,291.04,90,91,2.65,ZA,1700158420
263,nishon tumani,38.694,65.6751,288.29,36,0,4.12,UZ,1700158421
264,luderitz,-26.6481,15.1594,292.36,75,26,2.51,NA,1700158421
265,shatrovo,56.5167,64.6333,273.21,88,21,3.91,RU,1700158421
266,paita,-5.0892,-81.1144,297.43,70,78,8.05,PE,1700158421
267,las khorey,11.1595,48.1967,301.68,79,57,4.76,SO,1700158422
268,homnabad,17.7667,77.1333,292.84,57,26,4.11,IN,1700158423
269,kalengwa,-13.4659,25.0027,300.47,26,53,1.8,ZM,1700158423
270,tubarjal,30.4999,38.216,292.95,48,0,2.84,SA,1700158423
271,kapuskasing,49.4169,-82.4331,281.2,42,100,8.23,CA,1700158423
272,anicuns,-16.4611,-49.9617,305.36,31,48,4.15,BR,1700158423
273,seven pagodas,12.6264,80.1722,300.4,84,100,4.47,IN,1700158424
274,saldanha,-33.0117,17.9442,289.76,93,80,4.55,ZA,1700158424
275,tazovsky,67.4667,78.7,254.21,99,11,3.83,RU,1700158424
276,acarau,-2.8856,-40.12,303.95,57,4,8.93,BR,1700158424
277,villa gesell,-37.2639,-56.973,289.85,60,3,7.09,AR,1700158424
278,pont-a-mousson,48.9079,6.0589,284.74,93,75,6.69,FR,1700158424
279,djougou,9.7085,1.666,303.1,36,80,2.26,BJ,1700158425
280,tangalle,6.024,80.7911,298.89,88,100,2.66,LK,1700158425
281,sidareja,-7.4846,108.7923,297.73,94,100,0.52,ID,1700158425
282,tual,-5.6667,132.75,300.86,69,59,3.06,ID,1700158425
283,guanica,17.9716,-66.908,306.22,59,90,7.71,PR,1700158425
284,porto novo,6.4965,2.6036,302.05,78,100,2.23,BJ,1700158425
285,northam,51.0333,-4.2167,281.82,93,56,4.63,GB,1700158426
286,bengkulu,-3.8004,102.2655,297.18,96,100,1.51,ID,1700158426
287,carnarvon,-24.8667,113.6333,294.94,81,0,4.83,AU,1700158426
288,polyarnyy,69.1989,33.4478,265.79,92,80,5.52,RU,1700158426
289,ha'il,27.5219,41.6907,291.16,72,40,2.06,SA,1700158426
290,alto araguaia,-17.3147,-53.2153,311.0,20,64,4.17,BR,1700158426
291,seguela,7.9611,-6.6731,301.89,50,15,1.37,CI,1700158427
292,sarina,-21.4333,149.2167,295.71,1,16,3.73,AU,1700158427
293,salekhard,66.53,66.6019,256.56,88,5,4.42,RU,1700158427
294,fort frances,48.5999,-93.4003,281.27,58,84,6.17,CA,1700158427
295,gien,47.6933,2.6309,283.99,85,100,10.97,FR,1700158427
296,timaru,-44.4,171.25,285.41,91,100,1.79,NZ,1700158291
297,east london,-33.0153,27.9116,290.67,94,75,5.14,ZA,1700158427
298,igarka,67.4667,86.5833,252.19,100,55,2.36,RU,1700158428
299,ezine,39.7856,26.3408,287.52,69,10,2.4,TR,1700158428
300,voss,60.623,6.4229,267.07,88,17,1.99,NO,1700158428
301,beira,-19.8436,34.8389,295.2,68,0,4.12,MZ,1700158428
302,jaru,-10.4389,-62.4664,314.44,18,3,3.83,BR,1700158428
303,sona,45.4388,10.8255,284.4,86,40,1.54,IT,1700158429
304,dwarka,22.2394,68.9678,299.36,51,36,5.88,IN,1700158429
305,nelson bay,-32.7167,152.15,290.99,95,100,7.15,AU,1700158429
306,myeik,12.4333,98.6,299.02,85,100,2.65,MM,1700158429
307,arendal,58.4615,8.7725,273.04,80,96,6.34,NO,1700158336
308,barbacoas,1.6715,-78.1398,305.09,62,78,1.84,CO,1700158429
309,chernyshevskiy,63.0128,112.4714,269.8,95,100,4.98,RU,1700158358
310,tralee,52.2704,-9.7026,281.29,87,40,4.12,IE,1700158430
311,kuala tungkal,-0.8167,103.4667,299.42,85,97,0.93,ID,1700158430
312,nikolayevsk-on-amure,53.1406,140.73,266.01,89,100,0.66,RU,1700158430
313,birendranagar,28.6019,81.6339,289.05,77,0,1.9,NP,1700158430
314,badger,64.8,-147.5333,265.02,89,75,0.0,US,1700158431
315,flying fish cove,-10.4217,105.6791,298.97,83,100,3.6,CX,1700158431
316,bondoukou,8.0333,-2.8,301.42,55,75,1.48,CI,1700158431
317,fokino,42.9836,132.4047,278.21,95,100,1.96,RU,1700158431
318,sosnovo-ozerskoye,52.5249,111.5418,255.46,97,39,1.5,RU,1700158431
319,bairnsdale,-37.8333,147.6167,284.29,79,78,2.82,AU,1700158431
320,urengoy,65.9667,78.3667,255.09,98,74,3.52,RU,1700158431
321,karabar,-35.3753,149.2308,284.97,74,100,3.6,AU,1700158431
322,tsiombe,-25.3,45.4833,294.09,68,32,8.33,MG,1700158432
323,taltal,-25.4,-70.4833,291.69,69,100,3.24,CL,1700158432
324,lata,40.1629,-8.3327,291.52,97,94,1.01,PT,1700158432
325,castillos,-34.1667,-53.8333,296.3,49,52,4.58,UY,1700158432
326,el alto,-4.2714,-81.2147,298.96,65,93,10.15,PE,1700158432
327,puerto san jose,13.9256,-90.8244,303.04,68,41,2.11,GT,1700158243
328,fortaleza,-3.7227,-38.5247,304.86,60,20,7.72,BR,1700158432
329,mandalgovi,45.7625,106.2708,266.36,70,0,2.07,MN,1700158433
330,santo antonio do ica,-3.1022,-67.9397,311.87,30,38,1.06,BR,1700158433
331,guerrero negro,27.9769,-114.0611,297.03,68,100,2.59,MX,1700158155
332,naliya,23.2667,68.8333,297.89,32,24,3.41,IN,1700158433
333,alofi,-19.0595,-169.9187,298.09,94,98,4.63,NU,1700158433
334,dean funes,-30.4204,-64.3498,300.72,27,18,5.09,AR,1700158433
335,embi,48.8264,58.1442,278.94,78,100,1.83,KZ,1700158433
336,aleksandrov gay,50.147,48.5704,278.28,78,96,2.45,RU,1700158434
337,lincoln,40.8,-96.667,289.65,65,0,6.17,US,1700158195
338,paris,48.8534,2.3488,282.08,95,100,8.23,FR,1700158369
339,coyhaique,-45.5752,-72.0662,288.49,62,75,6.17,CL,1700158434
340,darab,28.7519,54.5444,288.3,75,73,1.13,IR,1700158434
341,chita,52.0333,113.55,255.91,71,28,2.0,RU,1700158434
342,kailua-kona,19.6406,-155.9956,298.43,77,40,2.57,US,1700158181
343,petropavlovsk-kamchatsky,53.0452,158.6483,265.07,75,7,6.26,RU,1700158435
344,wilmington,34.2257,-77.9447,296.96,67,0,5.36,US,1700158435
345,tara,56.8944,74.371,275.04,79,100,3.4,RU,1700158435
346,pangody,65.85,74.4859,254.88,93,46,4.1,RU,1700158435
347,forster,-32.1667,152.5167,291.14,100,100,4.79,AU,1700158436
348,mana,5.6592,-53.7767,301.55,77,25,3.31,GF,1700158436
349,broome,42.2506,-75.833,289.52,52,0,3.58,US,1700158436
350,fort bragg,35.139,-79.006,296.29,50,20,2.06,US,1700158436
351,bafoulabe,13.8065,-10.8321,306.33,10,3,1.72,ML,1700158436
352,lloydminster,53.2835,-110.0016,271.72,57,12,6.25,CA,1700158236
353,usinsk,65.9939,57.5281,255.97,92,80,3.58,RU,1700158437
354,aasiaat,68.7098,-52.8699,262.04,96,98,2.35,GL,1700158437
355,kavalerovo,44.2661,135.0572,277.34,98,100,4.47,RU,1700158437
356,trinidad,-14.8333,-64.9,311.14,37,40,9.26,BO,1700158212
357,arkhangel'sk,64.5401,40.5433,267.66,84,29,2.75,RU,1700158437
358,burang,30.25,81.1667,270.13,52,0,0.9,CN,1700158437
359,nzega,-2.479,29.5564,287.44,96,100,1.1,RW,1700158438
360,bizhbulyak,53.6967,54.2642,276.27,97,100,1.73,RU,1700158438
361,xinyuan,37.3,99.0,265.7,17,0,1.98,CN,1700158438
362,ust'-kut,56.7938,105.7672,266.73,84,100,3.58,RU,1700158438
363,plaza huincul,-38.926,-69.2086,288.79,10,99,3.58,AR,1700158438
364,oleszyce,50.1675,23.0348,278.98,82,69,1.37,PL,1700158438
365,mount gambier,-37.8333,140.7667,280.45,90,61,1.99,AU,1700158439
366,ust-tsilma,65.441,52.1498,260.71,94,94,2.68,RU,1700158439
367,machina,13.1364,10.0492,302.31,19,93,4.81,NG,1700158439
368,tokar,18.4254,37.729,301.4,64,53,5.78,SD,1700158439
369,turkmenbasy,40.0222,52.9552,289.48,81,0,3.26,TM,1700158439
370,zhangjiakou,40.81,114.8794,268.03,35,2,8.36,CN,1700158439
371,acapulco de juarez,16.8634,-99.8901,305.05,70,40,4.12,MX,1700158439
372,charters towers,-20.1,146.2667,293.76,70,6,4.6,AU,1700158439
373,torquay,50.4638,-3.5143,281.96,85,57,1.34,GB,1700158440
374,hotan,37.0997,79.9269,276.66,27,31,0.75,CN,1700158440
375,arys,42.4252,68.795,288.28,23,100,3.13,KZ,1700158440
376,garrucha,37.1874,-1.8349,291.67,65,92,0.63,ES,1700158440
377,carbonear,47.7332,-53.2148,275.23,76,81,2.79,CA,1700158440
378,boende,-0.2167,20.8667,295.62,99,96,0.67,CD,1700158440
379,levuka,50.1834,-105.4011,274.0,60,0,7.2,CA,1700158440
380,abepura,-2.6333,140.5833,297.6,94,20,0.51,ID,1700158441
381,yaren,-0.5472,166.916,301.06,79,21,2.25,NR,1700158441
382,kourou,5.1552,-52.6478,305.18,64,15,4.97,GF,1700158441
383,mugia,43.1041,-9.2179,288.8,79,83,1.45,ES,1700158441
384,gasteiz / vitoria,42.85,-2.6667,285.72,93,100,3.09,ES,1700158441
385,nako,31.8814,78.627,273.47,44,73,0.23,IN,1700158441
386,abaete,-19.16,-45.4458,311.27,21,27,2.42,BR,1700158392
387,nuku'alofa,-21.1333,-175.2,298.34,94,20,2.06,TO,1700158442
388,howard springs,-12.497,131.047,302.1,82,8,1.62,AU,1700158442
389,kokpekty,48.75,82.4,274.66,56,100,2.77,KZ,1700158442
390,vorgashor,67.5833,63.95,258.74,96,100,4.99,RU,1700158443
391,dharamsala,32.2419,76.3213,284.34,49,100,3.17,IN,1700158309
392,bathsheba,13.2167,-59.5167,297.49,100,75,6.69,BB,1700158443
393,goure,13.9835,10.2704,300.99,23,96,6.26,NE,1700158443
394,chilecito,-29.1619,-67.4974,303.79,11,3,5.78,AR,1700158443
395,iskateley,67.6803,53.1512,264.27,96,100,2.68,RU,1700158444
396,luanda,-8.8368,13.2343,301.15,78,20,5.66,AO,1700158444
397,strugi-krasnyye,58.2675,29.1114,269.45,76,31,1.8,RU,1700158444
398,cedeira,43.6797,-8.0209,286.63,73,93,1.35,ES,1700158444
399,amahai,-3.3333,128.9167,299.11,85,64,0.81,ID,1700158444
400,altai,46.3722,96.2583,268.45,33,0,2.43,MN,1700158445
401,simanggang,1.2472,111.4528,296.41,99,89,0.32,MY,1700158445
402,aqadyr,48.2553,72.8483,277.59,44,72,3.67,KZ,1700158445
403,nuuk,64.1835,-51.7216,271.49,80,75,1.03,GL,1700158284
404,boa vista,2.8197,-60.6733,308.14,43,40,2.57,BR,1700158445
405,ghat,24.9647,10.1728,294.35,28,0,3.0,LY,1700158446
406,fonte boa,-2.4959,-66.2662,311.86,28,6,0.46,BR,1700158446
407,el bauga,18.262,33.9081,300.57,24,39,5.64,SD,1700158446
408,chonchi,-42.6128,-73.8092,284.71,98,100,4.74,CL,1700158446
409,zalesovo,53.9939,84.7431,276.98,70,100,5.57,RU,1700158447
410,bundaberg,-24.85,152.35,296.05,96,40,1.34,AU,1700158447
411,jabor,5.921,169.6434,301.57,79,100,6.49,MH,1700158447
412,gao,16.6362,1.637,301.82,14,0,5.28,ML,1700158447
413,prince george,53.9166,-122.753,271.62,91,100,9.26,CA,1700158302
414,yelwa,8.8333,9.6333,303.51,28,79,1.65,NG,1700158448
415,andovoranto,-18.95,49.1,296.76,83,60,2.0,MG,1700158448
416,puerto colombia,10.9878,-74.9547,306.2,72,91,3.29,CO,1700158345
417,mossel bay,-34.1831,22.146,291.11,83,100,1.28,ZA,1700158448
418,chul'man,56.8479,124.9104,246.8,100,97,1.0,RU,1700158449
419,kutum,14.2,24.6667,294.97,27,35,4.55,SD,1700158449
420,broken hill,-31.95,141.4333,286.12,41,27,5.14,AU,1700158449
421,hinesville,31.8469,-81.5959,295.13,83,75,4.12,US,1700158449
422,st. john's,47.5649,-52.7093,275.36,76,75,3.6,CA,1700158339
423,sao tome,0.3365,6.7273,300.55,81,12,1.82,ST,1700158450
424,hasaki,35.7333,140.8333,285.53,68,100,8.84,JP,1700158450
425,wotho,10.1657,166.0102,301.06,83,44,9.89,MH,1700158450
426,ola,59.5833,151.2833,256.58,84,26,2.69,RU,1700158195
427,binzhou,37.3667,118.0167,278.1,36,22,6.74,CN,1700158451
428,libourne,44.9167,-0.25,287.43,73,65,5.59,FR,1700158451
429,san javier,37.8063,-0.8374,296.11,64,0,4.47,ES,1700158451
430,mungwi,-10.1732,31.3694,295.82,58,99,2.97,ZM,1700158452
431,nouadhibou,20.931,-17.0347,302.14,32,0,3.6,MR,1700158452
432,teknaf,20.8624,92.3058,295.74,96,100,3.98,BD,1700158452
433,manokwari,-0.8667,134.0833,299.14,73,5,2.53,ID,1700158452
434,westport,41.1415,-73.3579,291.74,52,1,1.79,US,1700158167
435,la dorada,5.4478,-74.6631,306.75,50,90,3.01,CO,1700158453
436,kharp,66.8014,65.8081,256.08,92,18,3.72,RU,1700158453
437,taulaga,-11.0553,-171.0883,301.71,76,81,2.81,AS,1700158338
438,richards bay,-28.783,32.0377,295.02,81,97,3.77,ZA,1700158453
439,ibarreta,-25.2144,-59.8585,301.17,75,94,4.71,AR,1700158453
440,tete,-16.1564,33.5867,303.2,37,0,5.14,MZ,1700158454
441,kimbe,-5.5502,150.1429,295.72,87,8,2.23,PG,1700158218
442,gizo,-8.103,156.8419,299.73,74,76,1.61,SB,1700158454
443,augusta,48.3667,10.8833,279.76,93,100,1.54,DE,1700158454
444,namtsy,62.7161,129.6658,254.48,97,100,2.91,RU,1700158454
445,penonome,8.5167,-80.3667,302.64,82,76,0.45,PA,1700158455
446,lorengau,-2.0226,147.2712,300.46,80,47,2.55,PG,1700158455
447,khilok,51.3674,110.4676,259.13,92,18,1.59,RU,1700158455
448,suva,-18.1416,178.4415,296.86,94,40,1.54,FJ,1700158455
449,akrehamn,59.2667,5.1833,276.16,80,75,4.12,NO,1700158455
450,callao,-12.0667,-77.15,295.31,68,40,3.6,PE,1700158456
451,tchamba,9.0333,1.4167,303.28,43,72,1.88,TG,1700158456
452,den helder,52.9599,4.7593,279.81,92,100,1.03,NL,1700158456
453,bardai,11.65,7.2333,299.73,35,100,4.15,NG,1700158457
454,golfito,8.639,-83.166,301.13,85,75,2.11,CR,1700157857
455,jayapura,-2.5333,140.7,297.81,93,44,1.96,ID,1700157857
456,praya,14.9215,-23.5087,303.45,45,80,7.2,CV,1700157858
457,ananindeua,-1.3656,-48.3722,303.1,74,75,6.69,BR,1700157858
458,chifeng,42.2683,118.9636,265.41,57,6,8.35,CN,1700157859
459,san-pedro,4.7485,-6.6363,299.87,79,27,2.23,CI,1700157860
460,natal,-5.795,-35.2094,304.27,62,75,7.2,BR,1700157861
461,aparan,40.5932,44.3589,281.75,82,94,4.58,AM,1700157861
462,yarmouth,41.7057,-70.2286,289.41,55,0,2.06,US,1700157862
463,kaiyuan,23.6977,103.3037,281.85,72,96,1.55,CN,1700157862
464,baiyin,36.5583,104.2081,275.19,35,0,1.72,CN,1700157863
465,reconquista,-29.15,-59.65,302.99,47,98,5.03,AR,1700157864
466,esqueda,30.7167,-109.5833,295.73,24,100,0.59,MX,1700157864
467,la penita de jaltomba,21.0333,-105.25,303.09,72,30,3.94,MX,1700157864
468,vanino,49.0869,140.2543,268.66,86,100,1.61,RU,1700157865
469,alice springs,-23.7,133.8833,291.9,100,100,6.69,AU,1700157704
470,senillosa,-39.0,-68.4167,294.03,28,98,16.09,AR,1700157865
471,tirlyanskiy,54.2109,58.5806,273.26,95,99,1.62,RU,1700157866
472,aripuana,-9.1667,-60.6333,314.52,18,3,1.72,BR,1700157866
473,kralendijk,12.15,-68.2667,304.14,70,75,8.75,BQ,1700157867
474,mirny,62.5353,113.9611,266.06,85,100,7.15,RU,1700157867
475,yanam,16.7333,82.2167,298.42,84,82,1.39,IN,1700157868
476,oranjemund,-28.55,16.4333,290.77,84,82,2.05,NA,1700157868
477,cachoeira do sul,-30.0392,-52.8939,301.04,67,80,2.14,BR,1700157869
478,laojunmiao,39.8333,97.7333,273.42,17,0,0.78,CN,1700157869
479,newman,37.3138,-121.0208,292.17,80,44,0.45,US,1700157870
480,karaman,37.0833,33.25,280.84,82,50,7.84,TR,1700157870
481,pangoa,-12.1167,-73.0,299.88,84,90,0.78,PE,1700157870
482,lensk,60.7253,114.9278,269.05,86,100,6.38,RU,1700157871
483,tanjung pandan,-2.75,107.65,299.17,86,100,1.06,ID,1700157871
484,ambodifotatra,-16.9833,49.85,299.05,79,30,6.96,MG,1700157872
485,mchinji,-13.7984,32.8802,297.22,45,59,2.31,MW,1700157873
486,gereida,11.2811,25.1414,303.18,24,83,4.34,SD,1700157873
487,san julian,21.0167,-102.1667,294.6,36,1,2.79,MX,1700157873
488,yung shue wan,22.2333,114.1167,290.75,55,75,0.45,HK,1700157874
489,ad dilam,23.9915,47.1627,297.38,52,35,3.84,SA,1700157874
490,sisimiut,66.9395,-53.6735,266.5,82,49,3.97,GL,1700157875
491,dabakala,8.3667,-4.4333,303.04,50,22,1.46,CI,1700157875
492,port saint john's,-31.6229,29.5448,295.77,74,100,1.86,ZA,1700157875
493,yallahs,17.8748,-76.5624,300.0,89,100,6.24,JM,1700157876
494,kenai,60.5544,-151.2583,275.98,94,20,5.66,US,1700157876
495,vila do maio,15.1333,-23.2167,303.59,76,50,4.3,CV,1700157876
496,alo,7.4178,6.7371,301.02,55,37,0.75,NG,1700157876
497,keflavik,64.0049,-22.5624,278.1,87,0,3.6,IS,1700157876
498,laascaanood,8.4774,47.3597,297.93,76,78,4.34,SO,1700157877
499,kone,-21.0595,164.8658,292.83,91,5,1.8,NC,1700157877
500,keelung,25.1283,121.7419,290.09,70,100,8.72,TW,1700157877
501,save,8.0425,2.486,302.75,47,68,2.76,BJ,1700157877
502,malvan,16.0667,73.4667,298.5,63,20,3.51,IN,1700157878
503,palu,-0.8917,119.8707,297.3,95,83,1.22,ID,1700157878
504,fale old settlement,-9.3852,-171.2468,302.25,74,82,3.36,TK,1700157878
505,quellon,-43.1167,-73.6167,284.15,94,100,7.61,CL,1700157878
506,belozersk,60.0326,37.7957,271.47,80,89,3.13,RU,1700157879
507,greymouth,-42.4667,171.2,286.35,96,100,4.03,NZ,1700157879
508,bemidji,47.4736,-94.8803,284.02,59,0,7.72,US,1700157622
509,valle de la pascua,9.2155,-66.0073,305.88,52,78,3.17,VE,1700157884
510,merizo village,13.2658,144.6691,301.46,89,100,7.53,GU,1700157884
511,kovalam,8.3667,76.9967,302.2,79,75,1.03,IN,1700157884
512,olyokminsk,60.3736,120.4264,264.09,80,100,4.98,RU,1700157885
513,oltinko'l,40.8011,72.1634,285.05,25,34,1.86,UZ,1700157885
514,loch garman,52.3342,-6.4575,282.53,100,73,3.13,IE,1700157885
515,rawson,-43.3002,-65.1023,295.23,26,85,10.08,AR,1700157885
516,coldwater,41.9403,-85.0005,292.09,39,0,6.17,US,1700157769
517,springbok,-29.6643,17.8865,294.9,28,95,2.36,ZA,1700157885
518,kiunga,-6.1219,141.2906,297.0,96,83,1.13,PG,1700157886
519,noumea,-22.2763,166.4572,297.59,99,31,2.12,NC,1700157605
520,umm ruwaba,12.9061,31.2158,302.97,23,47,5.81,SD,1700157886
521,malmberget,67.1753,20.6549,253.46,84,73,2.06,SE,1700157886
522,bargaal,11.2864,51.0773,300.42,79,92,3.4,SO,1700157887
523,codrington,-38.2667,141.9667,282.79,79,57,3.42,AU,1700157887
524,robore,-18.3333,-59.75,314.2,29,20,9.26,BO,1700157887
525,mahanoro,-19.9,48.8,295.21,91,23,2.02,MG,1700157587
526,itirucu,-13.5317,-40.1503,302.88,39,82,1.93,BR,1700157887
527,beledweyne,4.7358,45.2036,300.55,72,88,1.95,SO,1700157887
528,meadow lake,34.8014,-106.5436,292.42,47,98,2.39,US,1700157887
529,prince rupert,54.3161,-130.3201,280.98,95,100,19.03,CA,1700157779
530,jianshui,23.6363,102.8264,282.21,77,98,2.01,CN,1700157888
531,rio gallegos,-51.6226,-69.2181,286.18,41,40,6.69,AR,1700157720
532,luau,-10.7073,22.2247,290.47,95,100,1.52,AO,1700157888
533,road town,18.4167,-64.6167,304.2,66,40,4.63,VG,1700157888
534,lubang,13.8584,120.124,300.77,76,89,9.84,PH,1700157889
535,as sulayyil,20.4607,45.5779,299.29,37,45,3.15,SA,1700157889
536,madalena,41.2162,-8.3345,290.79,97,100,0.74,PT,1700157889
537,mount pearl,47.5166,-52.7813,274.51,76,75,3.6,CA,1700157890
538,kavieng,-2.5744,150.7967,300.54,78,47,3.25,PG,1700157890
539,al burayqah,30.4062,19.5739,296.07,71,0,4.97,LY,1700157890
540,kachug,53.9606,105.8817,262.62,97,95,0.89,RU,1700157891
541,el fasher,13.6279,25.3494,299.5,25,46,5.43,SD,1700157891
542,les cayes,18.2,-73.75,303.02,59,59,8.98,HT,1700157891
543,bedford,52.1346,-0.4663,280.99,89,75,3.6,GB,1700157891
544,jangipur,24.4667,88.0667,295.87,74,100,2.65,IN,1700157892
545,siocon,7.7061,122.1353,298.67,91,80,1.82,PH,1700157892
546,kaga bandoro,6.9896,19.1874,296.1,91,100,2.05,CF,1700157892
547,tamanrasset,22.785,5.5228,295.1,20,0,4.12,DZ,1700157892
548,gazipasa,36.2694,32.3179,290.2,94,75,2.57,TR,1700157893
549,champerico,14.3,-91.9167,307.45,72,13,2.19,GT,1700157893
550,kiwira,-9.1667,33.5333,290.93,94,79,1.36,TZ,1700157893
551,severo-yeniseyskiy,60.3725,93.0408,270.69,94,100,4.47,RU,1700157893
552,chibougamau,49.9168,-74.3659,275.94,65,20,5.14,CA,1700157640
553,buta,2.7858,24.73,295.04,100,99,1.09,CD,1700157894
554,posto fiscal rolim de moura,-13.0833,-62.2667,315.49,17,27,3.31,BR,1700157894
555,bechar,31.6167,-2.2167,298.33,13,0,0.51,DZ,1700157895
556,saint-joseph,-21.3667,55.6167,297.3,90,76,4.92,RE,1700157895
557,naze,28.3667,129.4833,288.66,83,100,10.45,JP,1700157895
558,ketchikan,55.3422,-131.6461,282.41,100,100,9.77,US,1700157895
559,shakawe,-18.3667,21.85,301.99,29,89,0.8,BW,1700157895
560,caleta de carquin,-11.0925,-77.6267,295.69,73,72,5.79,PE,1700157895
561,orkney,-26.9802,26.6727,297.54,31,100,2.25,ZA,1700157696
562,hakodate,41.7758,140.7367,285.95,78,100,10.16,JP,1700157859
563,gur'yevsk,54.2833,85.9333,277.04,66,100,7.05,RU,1700157896
564,chauk,20.8833,94.8167,296.5,80,96,3.1,MM,1700157896
